Ref,Spider,Name,Address,City,State,Zipcode,Country,Phone,Website,Hours,Brand,WikiData
217302,bluerhino,Harter House - Shell Knob #2294,,Shell Knob,MO,,US,+1 417-858-6647,,,Blue Rhino,Q65681213
187699,bluerhino,Area 71- Shell Knob,,Shell Knob,MO,,US,+1 417-858-2027,,,Blue Rhino,Q65681213
4022,dollar_general,Dollar General,,Shell Knob,MO,,US,+1 417-386-0062,https://www.dollargeneral.com/store-directory/mo/shell-knob/4022,Mo-Su 08:00-20:00,Dollar General,Q145168
https://www.mercy.net/content/mercy/us/en/practice/shell-knob/mercy-therapy-services-shell-knob.html,mercy,Mercy Therapy Services - Shell Knob,,Shell Knob,MO,,US,+1 417-847-6085,https://www.mercy.net/practice/mercy-therapy-services-shell-knob,Mo 08:00-16:30; Fr 08:00-16:30,Mercy,Q30289045
https://www.mercy.net/content/mercy/us/en/practice/shell-knob/mercy-clinic-family-medicine-shell-knob.html,mercy,Mercy Clinic Family Medicine - Shell Knob,,Shell Knob,MO,,US,+1 417-858-3731,https://www.mercy.net/practice/mercy-clinic-family-medicine-shell-knob,Mo-Fr 08:00-17:00,Mercy,Q30289045
3019,mightyflame,MEEKS BUILDING CENTER,,SHELL KNOB,MO,,US,+1 417-858-6123,,,Mighty Flame,
0000867535,phillips_66_conoco_76,RAPID ROBERTS #106,,SHELL KNOB,MO,,US,+1 417-858-6177,,24/7,Conoco,Q109341187
mo_shell-knob_25562-state-hwy-39,pizza_hut_us,25562 State Hwy 39,,Shell Knob,MO,,US,+1 417-858-3554,https://locations.pizzahut.com/mo/shell-knob/25562-state-hwy-39,,Pizza Hut,Q191615
meeks-65470,ppgpaints,MEEKS,,"Shell Knob, ",MO,,US,+1 417-858-6123,https://www.ppgpaints.com/store-locator/us/missouri/shell-knob-paint-stores/meeks-65470,,PPG Paints,Q83891559
https://restaurants.subway.com/#14903870,subway,Subway,,Shell Knob Barry,MO,,US,+1 417-858-6454,https://restaurants.subway.com/united-states/mo/shell-knob/26082-state-highway-39-south,Mo-Su 10:00-19:00,Subway,Q244457
1381443,usps,SHELL KNOB,,SHELL KNOB,MO,,US,+1 417-858-6485,,"Mo-Fr 08:30-13:00,14:00-16:00; Sa 09:00-10:30",United States Postal Service,Q668687
6574700007,usps_collection_boxes,USPS COLLECTION BOX - PO LOBBY,24847 STATE HIGHWAY 39,SHELL KNOB,MO,,US,,,,United States Postal Service,Q668687
6574700006,usps_collection_boxes,USPS COLLECTION BOX - BLUE BOX,24847 STATE HIGHWAY 39,SHELL KNOB,MO,,US,,,,United States Postal Service,Q668687
6574700002,usps_collection_boxes,USPS COLLECTION BOX - PO LOBBY,24847 STATE HIGHWAY 39,SHELL KNOB,MO,,US,,,,United States Postal Service,Q668687
6574700003,usps_collection_boxes,USPS COLLECTION BOX - PO LOBBY,24847 STATE HIGHWAY 39,SHELL KNOB,MO,,US,,,,United States Postal Service,Q668687
,visa,,,SHELL KNOB,MO,,US,,,,,
,visa,,,SHELL KNOB,MO,,US,,,,,
,visa,,,SHELL KNOB,MO,,US,,,,,
,visa,,,SHELL KNOB,MO,,US,,,,,
,visa,,,SHELL KNOB,MO,,US,,,,,
,visa,,,SHELL KNOB,MO,,US,,,,,
