Ref,Spider,Name,Address,City,State,Zipcode,Country,Phone,Website,Hours,Brand,WikiData
5,aaa,Worcester Branch,,Worcester,MA,,US,+1 508-853-7000,,,American Automobile Association,Q463436
https://stores.advanceautoparts.com/ma/worcester/759-w-boylston-st,advance_auto_parts_us,Advance Auto Parts,,Worcester,MA,,US,+1 508-502-7014,https://stores.advanceautoparts.com/ma/worcester/759-w-boylston-st,Mo-Sa 07:30-21:00; Su 09:00-20:00,Advance Auto Parts,Q4686051
594112,afcurgentcare,American Family Care North Worcester,,Worcester,MA,,US,+1 774-243-2805,https://www.afcurgentcare.com/north-worcester/,Mo-Fr 08:00-20:00; Sa-Su 08:00-17:00,AFC Urgent Care,Q110552174
66/67 Millbrook Street,allied_universal,Allied Universal,,Worcester,MA,,US,+1 508-797-3758,https://www.aus.com/worcester-security-systems-services,,Allied Universal,Q4732537
191688,bluerhino,Price Chopper #194,,Worcester,MA,,US,+1 508-854-8474,,,Blue Rhino,Q65681213
187624,bluerhino,"Global #10021 - Worcester, MA",,Worcester,MA,,US,+1 508-595-0417,,,Blue Rhino,Q65681213
159577,bluerhino,Orgill #270595 -  Jerrys Hardware,,Worcester,MA,,US,+1 508-853-9805,,,Blue Rhino,Q65681213
153856,bluerhino,Walgreens #09152,,Worcester,MA,,US,+1 508-856-7901,,,Blue Rhino,Q65681213
187801,bluerhino,Family Dollar #10710,,Worcester,MA,,US,+1 508-926-6804,,,Blue Rhino,Q65681213
198547,bluerhino,Gateway Food West Boylston,,Worcester,MA,,US,+1 617-365-0715,,,Blue Rhino,Q65681213
75491,bluerhino,Gibbs Oil #1957,,Worcester,MA,,US,+1 508-852-7135,,,Blue Rhino,Q65681213
226196,bluerhino,Super Smoke Convenience Mart,,Worcester,MA,,US,+1 508-854-0635,,,Blue Rhino,Q65681213
190892,bluerhino,Boski's Market - AGNE #10249,,Worcester,MA,,US,+1 508-459-1196,,,Blue Rhino,Q65681213
60958,bluerhino,Stop & Shop #037,,Worcester,MA,,US,+1 508-853-8791,,,Blue Rhino,Q65681213
38049231197020160600100000000000,bp,BP,,Worcester,MA,,US,+1 508-363-0523,,Mo-Su 06:00-20:00,BP,Q152057
56269432,chase_us,Gold Star Blvd - New branch,,Worcester,MA,,US,+1 508-926-6920,https://locator.chase.com/ma/worcester/81-gold-star-blvd,Mo-Fr 09:00-17:00; Sa 09:00-13:00,Chase,Q524629
93520,citi,ATM Walgreens,,Worcester,MA,,US,,,,Citibank,Q857063
63741,citi,ATM LEOMINSTER CREDIT UNION,,Worcester,MA,,US,,,,Citibank,Q857063
95817,citi,ATM WORCESTER CREDIT UNION,,Worcester,MA,,US,,,,Citibank,Q857063
95816,citi,ATM WORCESTER CREDIT UNION,,Worcester,MA,,US,,,,Citibank,Q857063
36424,citi,ATM BAY STATE SAVINGS BANK,,Worcester,MA,,US,,,,Citibank,Q857063
101240,citizens_us,Citizens Supermarket Branch Worcester S&S Boyl,,Worcester,MA,,US,+1 508-853-3602,,Mo-Fr 10:00-17:00; Sa 10:00-15:00,Citizens,Q5122694
ATM-434,citizens_us,,,Worcester,MA,,US,+1 508-853-3602,,,Citizens,Q5122694
ATM-2809,citizens_us,,,Worcester,MA,,US,+1 508-853-3602,,Mo-Su 08:00-20:00,Citizens,Q5122694
,credit_union_us,Digital FCU,,Worcester,MA,,US,+1 508-595-1202,,Mo-We 09:00-05:00; Th-Fr 09:00-07:00; Sa 09:00-03:00,,
245,crunch_fitness,Crunch Fitness,,Worcester,MA,,US,+1 508-757-3900,https://www.crunch.com/locations/worcester,,Crunch Fitness,Q5190093
3072,dominos_pizza_us,Domino's Pizza,,Worcester,MA,,US,+1 508-853-1100,https://pizza.dominos.com/massachusetts/worcester/947-west-boylston-st,Mo-Th 10:30-01:00; Fr-Sa 10:30-02:00; Su 10:30-01:00,Domino's,Q839466
331894,dunkin_us,Dunkin',,Worcester,MA,,US,+1 508-854-8011,https://locations.dunkindonuts.com/en/ma/worcester/67-w-boylston-st/331894,Mo-Sa 05:00-19:00; Su 06:00-19:00,Dunkin',Q847743
343109,dunkin_us,Dunkin',,Worcester,MA,,US,+1 508-595-9027,https://locations.dunkindonuts.com/en/ma/worcester/765-w-boylston-st/343109,Mo-Fr 04:30-21:30; Sa-Su 05:00-20:00,Dunkin',Q847743
https://www.edwardjones.com/us-en/financial-advisor/tim-furbush,edwardjones,Tim Furbush,,Worcester,MA,,US,+1 508-854-1608,https://www.edwardjones.com/us-en/financial-advisor/tim-furbush,Mo-Th 09:00-17:00; Fr 09:00-15:00,Edward Jones,Q5343830
E110R1,enterprise,Worcester Harr Toyota,,Worcester,MA,,US,+1 508-853-8000,,,Enterprise Rent-A-Car,Q17085454
900065,extra_space_storage,Worcester self storage at 16 Ararat St,,Worcester,MA,,US,+1 508-852-5900,https://www.extraspace.com/storage/facilities/us/massachusetts/worcester/900065/,Mo-Su 06:00-22:00,Extra Space Storage,Q5422162
30710,family_dollar_us,FAMILY DOLLAR #10710,,Worcester,MA,,US,+1 774-272-6046,https://www.familydollar.com/locations/ma/worcester/30710/,Mo-Su 08:00-22:00,Family Dollar,Q5433101
455911,follett,Quinsigamond Community College,,Worcester,MA,,US,+1 508-854-4237,https://www.bkstr.com/qccstore/home,,,
https://stores.footlocker.com/ma/worcester/7-neponset-street-8025.html,footlocker,"Foot Locker in Greendale Mall: Worcester, Massachusetts | Approved | Own It",,Worcester,MA,,US,+1 508-853-6171,https://stores.footlocker.com/ma/worcester/7-neponset-street-8025.html,Mo-Sa 10:00-21:00; Su 11:00-18:00,Foot Locker,Q63335
Motorcraft4030USAEnglish,ford,Harr Motor Co Inc,,Massachusetts,MA,,US,+1 508-852-5111,,,Ford,Q44294
194,golub_corporation_us,Market 32 Worcester,,Worcester,MA,,US,+1 508-854-8474,https://www.pricechopper.com/stores/ma/worcester/market-32-194.html,Mo-Su 06:00-24:00,Market 32,Q123370878
4856,gulf_pr_us,YANKEE GAS,,Worcester,MA,,US,+1 508-853-7026,https://www.gulfoil.com/yankee-gas,,Gulf Oil,Q5617505
5158,gulf_pr_us,NOURIA #1080,,Worcester,MA,,US,+1 508-854-0600,https://www.gulfoil.com/nouria-1080,,Gulf Oil,Q5617505
958,mightyflame,CHADWICK FOOD MART,,WORCESTER,MA,,US,+1 508-852-7933,,,Mighty Flame,
73867403,moneygram,ZION TROPICAL MARKET,,WORCESTER,MA,,US,+1 508-853-5250,,Mo-Sa 09:00-20:00; Su 00:00-24:00,MoneyGram,Q1944412
033940,penske,Home Depot #2684,,WORCESTER,MA,,US,+1 508-754-7804,https://www.pensketruckrental.com/locations/us/massachusetts/worcester/033940/,,Penske,Q81234570
home-depot-2684-9209,ppgpaints,HOME DEPOT 2684,,"Worcester, ",MA,,US,+1 508-852-6260,https://www.ppgpaints.com/store-locator/us/massachusetts/worcester-paint-stores/home-depot-2684-9209,,PPG Paints,Q83891559
https://restaurants.subway.com/#14901370,subway,Subway,,Worcester Worcester,MA,,US,+1 508-595-0143,https://restaurants.subway.com/united-states/ma/worcester/576-west-boylston-st,Mo-Fr 09:00-21:00; Sa-Su 10:00-20:00,Subway,Q244457
0442548400,sunoco_us,Sunoco,,WORCESTER,MA,,US,+1 508-854-0555,,Mo-Su 06:00-00:00,Sunoco,Q1423218
80997,supercuts,Worcester,947 W Boylston St,Worcester,MA,,US,+1 508-856-9356,https://www.supercuts.com/checkin/80997,Mo-Fr 09:00-19:00; Sa 08:00-17:00; Su 09:00-17:00,Supercuts,Q7643239
1365577,usps,GREENDALE,,WORCESTER,MA,,US,+1 508-854-2976,,Mo-Fr 09:00-17:00; Sa 08:00-14:00,United States Postal Service,Q668687
0160600030,usps_collection_boxes,USPS COLLECTION BOX - PO LOBBY,290 W BOYLSTON ST,WORCESTER,MA,,US,,,,United States Postal Service,Q668687
0160600029,usps_collection_boxes,USPS COLLECTION BOX - PO LOBBY,290 W BOYLSTON ST,WORCESTER,MA,,US,,,,United States Postal Service,Q668687
0160600025,usps_collection_boxes,USPS COLLECTION BOX - BLUE BOX,290 W BOYLSTON ST,WORCESTER,MA,,US,,,,United States Postal Service,Q668687
0160600031,usps_collection_boxes,USPS COLLECTION BOX - BLUE BOX,290 W BOYLSTON ST,WORCESTER,MA,,US,,,,United States Postal Service,Q668687
https://vcahospitals.com/abbott,vca,VCA Abbott Animal Hospital,,Worcester,MA,,US,+1 508-853-3350,https://vcahospitals.com/abbott,Mo-Th 07:45-20:00; Fr 07:45-18:00; Sa 08:00-15:00; Su 09:00-14:00,VCA,Q7906620
A00000248520,verizon_us,Cellular Sales Worcester,,WORCESTER,MA,,US,+1 774-243-6334,https://www.verizon.com/stores/details/massachusetts/worcester/cellular-sales-worcester-1775822/,Mo-Sa 09:00-21:00; Su 11:00-19:00,Verizon,Q919641
,visa,,,WORCESTER,MA,,US,,,,,
,visa,,,WORCESTER,MA,,US,,,,,
,visa,,,WORCESTER,MA,,US,,,,,
,visa,,,WORCESTER,MA,,US,,,,,
,visa,,,WORCESTER,MA,,US,,,,,
,visa,,,WORCESTER,MA,,US,,,,,
,visa,,,WORCRESTER,MA,,US,,,,,
,visa,,,WORCESTER,MA,,US,,,,,
,visa,,,WORCESTER,MA,,US,,,,,
,visa,,,WORCESTER,MA,,US,,,,,
,visa,,,WORCESTER,MA,,US,,,,,
,visa,,,WORCESTER,MA,,US,,,,,
,visa,,,WORCESTER,MA,,US,,,,,
,visa,,,WORCESTER,MA,,US,,,,,
,visa,,,WORCESTER,MA,,US,,,,,
,visa,,,WORCESTER,MA,,US,,,,,
,visa,,,WORCESTER,MA,,US,,,,,
https://www.walgreens.com/locator/walgreens-937+w+boylston+st-worcester-ma-01606/id=9152,walgreens,Walgreens,,Worcester,MA,,US,+1 508-856-7901,https://www.walgreens.com/locator/walgreens-937+w+boylston+st-worcester-ma-01606/id=9152,Mo-Su 09:00-21:00,Walgreens,Q1591889
