Ref,Spider,Name,Address,City,State,Zipcode,Country,Phone,Website,Hours,Brand,WikiData
https://stores.advanceautoparts.com/nc/boone/1335-us-hwy-421-s,advance_auto_parts_us,Advance Auto Parts,,Boone,NC,,US,+1 828-266-9670,https://stores.advanceautoparts.com/nc/boone/1335-us-hwy-421-s,Mo-Sa 07:30-21:00; Su 09:00-20:00,Advance Auto Parts,Q4686051
https://stores.advanceautoparts.com/nc/boone/171-boone-heights-dr,advance_auto_parts_us,Advance Auto Parts,,Boone,NC,,US,+1 828-262-3550,https://stores.advanceautoparts.com/nc/boone/171-boone-heights-dr,Mo-Sa 07:30-21:00; Su 09:00-20:00,Advance Auto Parts,Q4686051
/locations/propane-offices/north-carolina/boone/4481-hwy-105-s,amerigas,"AmerGas Propane | Boone, North Carolina",,Boone,NC,,US,+1 828-963-5189,/locations/propane-offices/north-carolina/boone/4481-hwy-105-s,,AmeriGas,Q23130318
379,anytime_fitness,Anytime Fitness,,Boone,NC,,US,+1 828-386-1100,https://www.anytimefitness.com/gyms/379/boone-nc-28607/,,Anytime Fitness,Q4778364
https://restaurants.applebees.com/en-us/nc/boone/2036-blowing-rock-road-98053,applebees,Connect with this Applebee's,,Boone,NC,,US,+1 828-262-1136,https://restaurants.applebees.com/en-us/nc/boone/2036-blowing-rock-road-98053,Mo-Th 11:00-23:00; Fr-Sa 11:00-24:00; Su 11:00-23:00,Applebees,Q621532
22596,asics_us,SageSport,1180 Blowing Rock Road,Boone,NC,,US,+1 828-262-1112,,,asics,Q327247
14448,asics_us,Hibbett Sports,276 Watauga Village Dr,Boone,NC,,US,+1 828-265-3911,,,asics,Q327247
https://locations.auntieannes.com/#3353376095854581355,auntie_annes,Auntie Anne's Boone,,Boone,NC,,US,+1 828-263-4406,https://locations.auntieannes.com/nc/boone/819-blowing-rock-rd,Mo-Su 10:00-21:00,Auntie Anne's,Q4822010
6465,autozone_us,AutoZone Auto Parts Boone,,Boone,NC,,US,+1 828-278-6086,https://www.autozone.com/locations/nc/boone/1275-blowing-rock-rd.html,Mo-Sa 07:30-20:00; Su 08:30-19:00,AutoZone,Q4826087
https://locators.bankofamerica.com/nc/boone/financial-centers-boone-981.html,bankofamerica,Bank of America Financial Center with Drive-Thru ATM & Teller Services | Boone,,Boone,NC,,US,+1 828-264-4711,https://locators.bankofamerica.com/nc/boone/financial-centers-boone-981.html,Mo-Fr 09:00-16:00; Sa 09:00-14:00,Bank of America,Q487907
BBW01232,bathandbodyworks_us,BOONE MALL,,BOONE,NC,,US,+1 828-265-0460,,Mo-Th 10:00-20:00; Fr-Sa 10:00-21:00; Su 12:30-17:30,Bath & Body Works,Q810773
https://local.biglots.com/#13190909,biglots,Big Lots - Boone,,Boone,NC,,US,+1 828-263-0379,https://local.biglots.com/nc/boone/223-new-market-ctr,Mo-Sa 09:00-21:00; Su 10:00-19:00,Big Lots,Q4905973
236150,bluerhino,Circle K #2721599,,Boone,NC,,US,+1 828-262-5899,,,Blue Rhino,Q65681213
148598,bluerhino,Speedway #7921,,Boone,NC,,US,+1 828-264-1454,,,Blue Rhino,Q65681213
236148,bluerhino,Circle K #2720164,,Boone,NC,,US,+1 828-262-1702,,,Blue Rhino,Q65681213
236147,bluerhino,Circle K #2720141,,Boone,NC,,US,+1 828-262-3312,,,Blue Rhino,Q65681213
148714,bluerhino,Speedway #7923,,Boone,NC,,US,+1 828-262-1135,,,Blue Rhino,Q65681213
180023,bluerhino,Watauga Building Supply Inc. DIB #4484,,Boone,NC,,US,+1 828-264-2475,,,Blue Rhino,Q65681213
211436,bluerhino,Harris Teeter  #163- Fuel Center,,Boone,NC,,US,+1 828-278-4200,,,Blue Rhino,Q65681213
221182,bluerhino,Dollar General #2314,,Boone,NC,,US,+1 828-278-8352,,,Blue Rhino,Q65681213
242686,bluerhino,Walmart #2496 - Vending,,Boone,NC,,US,+1 828-262-0254,,,Blue Rhino,Q65681213
210053,bluerhino,Harris Teeter #165,,Boone,NC,,US,+1 828-262-3319,,,Blue Rhino,Q65681213
183624,bluerhino,Lowes Food #177,,Boone,NC,,US,+1 828-265-2084,,,Blue Rhino,Q65681213
40859,bluerhino,Food Lion #1503,,Boone,NC,,US,+1 828-262-1438,,,Blue Rhino,Q65681213
148715,bluerhino,Speedway #7924,,Boone,NC,,US,+1 828-264-2285,,,Blue Rhino,Q65681213
56925,bluerhino,Lowe's #1522,,Boone,NC,,US,+1 828-262-0773,,,Blue Rhino,Q65681213
236149,bluerhino,Circle K #2720410,,Boone,NC,,US,+1 828-262-0855,,,Blue Rhino,Q65681213
236146,bluerhino,Circle K #2720140,,Boone,NC,,US,+1 828-264-0053,,,Blue Rhino,Q65681213
148573,bluerhino,Speedway #7922,,Boone,NC,,US,+1 828-262-5819,,,Blue Rhino,Q65681213
180719,bluerhino,Plan B,,Boone,NC,,US,+1 828-263-0244,,,Blue Rhino,Q65681213
236151,bluerhino,Circle K #2723790,,Boone,NC,,US,+1 828-265-3012,,,Blue Rhino,Q65681213
75820,bluerhino,Food Lion #2592,,Boone,NC,,US,+1 828-264-9373,,,Blue Rhino,Q65681213
nc/boone/1277-highway-421-south,bojangles,"Bojangles Boone, NC",,Boone,NC,,US,+1 828-262-9788,https://locations.bojangles.com/nc/boone/1277-highway-421-south.html,,Bojangles',Q891163
nc/boone/1064-blowing-rock,bojangles,"Bojangles Boone, NC",,Boone,NC,,US,+1 828-262-1849,https://locations.bojangles.com/nc/boone/1064-blowing-rock.html,,Bojangles',Q891163
16233,chevrolet,ELEVATION CHEVROLET GMC,,Boone,NC,,US,+1 828-264-9051,,Mo-Fr 09:00-19:00; Sa 09:00-18:00,Chevrolet,Q29570
001.005.1533,chilis,Boone,,Boone,NC,,US,+1 828-266-9626,https://www.chilis.com/locations/us/north-carolina/boone/boone/,Mo-Th 11:00-22:00; Fr-Sa 11:00-23:00; Su 11:00-22:00,Chili's,Q1072948
nc_boone_1787-blowing-rock-rd,chipotle, ,,Boone,NC,,US,+1 828-262-1134,https://locations.chipotle.com/nc/boone/1787-blowing-rock-rd,,Chipotle,Q465751
41567,citi,ATM Circle K,,Boone,NC,,US,,,,Citibank,Q857063
77095,citi,ATM Speedway,,Boone,NC,,US,,,,Citibank,Q857063
76536,citi,ATM Speedway,,Boone,NC,,US,,,,Citibank,Q857063
40507,citi,ATM Circle K,,Boone,NC,,US,,,,Citibank,Q857063
43956,citi,ATM Circle K,,Boone,NC,,US,,,,Citibank,Q857063
42079,citi,ATM Circle K,,Boone,NC,,US,,,,Citibank,Q857063
77707,citi,ATM Speedway,,Boone,NC,,US,,,,Citibank,Q857063
76825,citi,ATM Speedway,,Boone,NC,,US,,,,Citibank,Q857063
58863,citi,ATM Harris Teeter,,Boone,NC,,US,,,,Citibank,Q857063
76153,citi,ATM SKYLINE NATIONAL BANK 05,,Boone,NC,,US,,,,Citibank,Q857063
40499,citi,ATM Circle K,,Boone,NC,,US,,,,Citibank,Q857063
41343,citi,ATM Circle K,,Boone,NC,,US,,,,Citibank,Q857063
49080,citi,ATM CVS,,Boone,NC,,US,,,,Citibank,Q857063
88964,citi,ATM Walgreens,,Boone,NC,,US,,,,Citibank,Q857063
boone/6236,claires,Shop Ear Piercings & Jewelry at Boone Mall,,BOONE,NC,,US,+1 828-262-5759,https://stores.claires.com/us/nc/boone/6236.html,Mo-Th 10:00-20:00; Fr-Sa 10:00-21:00; Su 12:00-17:30,Claire's,Q2974996
11,clean_eatz_us,,,Boone,NC,,US,+1 828-386-4311,https://locations.cleaneatz.com/nc/boone/meal-prep-11.html,Mo-Fr 11:00-19:00; Sa 11:00-15:00,Clean Eatz,Q124412638
1937,cookout,Boone,,Boone,NC,,US,,,Mo-Th 10:30-03:30; Fr-Sa 10:30-04:30; Su 10:30-03:30,Cookout,Q5166992
7331,cvs_us,CVS Pharmacy,,Boone,NC,,US,+1 828-262-0900,https://www.cvs.com/store-locator/boone-nc-pharmacies/2147-blowing-rock-rd-boone-nc-28607/storeid=7331,Mo-Su 08:00-22:00,CVS Pharmacy,Q2078880
5549,dominos_pizza_us,Domino's Pizza,,Boone,NC,,US,+1 828-264-6507,https://pizza.dominos.com/north-carolina/boone/702-a-blowing-rock-rd,Mo-Th 10:30-24:00; Fr-Sa 10:30-01:00; Su 10:30-24:00,Domino's,Q839466
https://www.edwardjones.com/us-en/financial-advisor/will-williams,edwardjones,Will Williams,,Boone,NC,,US,+1 828-264-6252,https://www.edwardjones.com/us-en/financial-advisor/will-williams,Mo-Th 09:00-17:00; Fr 09:00-16:00,Edward Jones,Q5343830
E15306,enterprise,Boone,,Boone,NC,,US,+1 828-268-9761,,,Enterprise Rent-A-Car,Q17085454
https://restaurants.fiveguys.com/#15553082,five_guys_us,Five Guys Shops at Shadowline,,Boone,NC,,US,+1 828-355-4346,https://restaurants.fiveguys.com/1435-blowing-rock-rd,"Mo-Su 11:00-21:30,11:00-22:00",Five Guys,Q1131810
Motorcraft2052USAEnglish,ford,"Boone Ford, Inc.",,North Carolina,NC,,US,+1 828-264-6111,,,Ford,Q44294
https://www.ford.com/dealerships/dealer-details/nc/boone/modern-ford-of-boone/,ford_dealers_us,Modern Ford of Boone,,Boone,NC,,US,+1 828-832-0180,https://www.ford.com/dealerships/dealer-details/nc/boone/modern-ford-of-boone/,Mo-Fr 09:00-19:00; Sa 09:00-18:00,Ford Motor Company,Q44294
6884,fresenius_kidney_care_us,Fresenius Kidney Care Watauga County,,Boone,NC,,US,+1 800-881-5101,https://www.freseniuskidneycare.com/dialysis-centers/north-carolina/6884,Mo-Sa 05:30-16:30,,
https://stores.gnc.com/#24058292,gnc,GNC Boone Mall,,,NC,,US,+1 828-262-0666,https://stores.gnc.com/all-stores-north-carolina/boone/1180-blowing-rock-rd,Mo-Sa 10:00-21:00; Su 12:30-17:30,GNC,Q4808595
f35c94d2-c3ca-e511-bed2-005056890337,goodwill,Retail Store - Boone (Crossing Way),,Boone,NC,,US,+1 828-264-8523,https://www.goodwill.org/locator/location/?store=ZjM1Yzk0ZDItYzNjYS1lNTExLWJlZDItMDA1MDU2ODkwMzM3&lat=MzYuMjAwOTU=&lng=LTgxLjY3OTcy,,Goodwill,Q5583655
9fa20146-458a-e111-8dde-005056934050,goodwill,Retail Store - Boone (Boone Heights Dr.),,Boone,NC,,US,+1 828-264-4174,https://www.goodwill.org/locator/location/?store=OWZhMjAxNDYtNDU4YS1lMTExLThkZGUtMDA1MDU2OTM0MDUw&lat=MzYuMjAwNjc=&lng=LTgxLjY1ODA3,,Goodwill,Q5583655
https://salons.greatclips.com/us/nc/boone/197-new-market-centre,greatclips,Great Clips,,Boone,NC,,US,+1 828-386-4111,https://salons.greatclips.com/us/nc/boone/197-new-market-centre,Mo-Fr 10:00-19:00; Sa 08:00-17:00; Su 10:00-17:00,Great Clips,Q5598967
1502771,hardees_us,Hardee's,,BOONE,NC,,US,+1 828-262-3201,https://locations.hardees.com/nc/boone/344-e-king-st,,Hardee's,Q1585088
1322,h_r_block,H&R Block,,Boone,NC,,US,+1 828-264-2341,https://www.hrblock.com/local-tax-offices/north-carolina/boone/203-new-market-centre/1322/,,H&R Block,Q5627799
84,ingles,Boone,,Boone,NC,,US,+1 828-265-1913,https://www.ingles-markets.com/storelocate/storeinfo.php?storenum=84,Mo-Su 07:00-23:00,Ingles,Q6032595
https://locations.jamba.com/#7564850909590542126,jambajuice,Jamba Boone,,Boone,NC,,US,+1 828-263-4406,https://locations.jamba.com/nc/boone/819-blowing-rock-rd,Mo-Su 10:00-21:00,Jamba Juice,Q3088784
https://locations.jimmyjohns.com/nc/boone/sandwiches-1282.html,jimmy_johns,Jimmy John's,,Boone,NC,,US,+1 828-266-9869,https://locations.jimmyjohns.com/nc/boone/sandwiches-1282.html,,Jimmy John's,Q1689380
https://locations.jimmyjohns.com/nc/boone/sandwiches-1047.html,jimmy_johns,Jimmy John's,,Boone,NC,,US,+1 828-266-9820,https://locations.jimmyjohns.com/nc/boone/sandwiches-1047.html,,Jimmy John's,Q1689380
https://locations.kfc.com/#11246996,kfc,Chicken Nuggets Near Boone,,Boone,NC,,US,,https://locations.kfc.com/nc/boone/1668-blowing-rock-road/chickennugget,Mo-Th 10:00-22:00; Fr-Sa 10:00-23:00; Su 10:00-22:00,KFC,Q524757
store-177,lowes_foods,Lowes Foods of Boone,,Boone,NC,,US,+1 828-265-2084,https://www.lowesfoods.com/store-locator/store-177,Mo-Su 07:00-22:00,Lowes Foods,Q6693991
161725,marathon_petroleum_us,PENNYWISE,,Boone,NC,,US,+1 828-264-3098,,,Marathon,Q458363
HKYBN,marriott,Courtyard Boone,,Boone,NC,,US,+1 828-265-7676,https://www.marriott.com/HKYBN,,Courtyard by Marriott,Q1053170
HKYFI,marriott,Fairfield Inn & Suites Boone,,Boone,NC,,US,+1 828-268-0677,https://www.marriott.com/HKYFI,,Fairfield by Marriott,Q5430314
HKYTS,marriott,TownePlace Suites Boone,,Boone,NC,,US,+1 828-386-1717,https://www.marriott.com/HKYTS,,Townplace Suites by Marriott,Q7830092
16636,mattress_firm_us,Mattress Firm Boone,,Boone,NC,,US,+1 828-264-4893,https://www.mattressfirm.com/en-us/stores/nc/boone/017025/,,Mattress Firm,Q6791878
NNA5837,nissan_europe,FRIENDSHIP NISSAN OF BOONE,,BOONE,NC,,US,+1 828-264-7726,https://www.nissanboone.com,Mo-Sa 09:00-18:00,Nissan,Q20165
https://locations.oreillyauto.com/nc/boone/check-engine-light-testing-6605.html,oreilly,Your Boone O'Reilly Auto Parts Store,,Boone,NC,,US,+1 828-278-3004,https://locations.oreillyauto.com/nc/boone/check-engine-light-testing-6605.html,Mo-Sa 07:30-21:00; Su 09:00-20:00,O'Reilly Auto Parts,Q7071951
https://locations.oreillyauto.com/nc/boone/wiper-installation-6605.html,oreilly,Your Boone O'Reilly Auto Parts Store,,Boone,NC,,US,+1 828-278-3004,https://locations.oreillyauto.com/nc/boone/wiper-installation-6605.html,Mo-Sa 07:30-21:00; Su 09:00-20:00,O'Reilly Auto Parts,Q7071951
https://locations.oreillyauto.com/nc/boone/battery-testing-6605.html,oreilly,Your Boone O'Reilly Auto Parts Store,,Boone,NC,,US,+1 828-278-3004,https://locations.oreillyauto.com/nc/boone/battery-testing-6605.html,Mo-Sa 07:30-21:00; Su 09:00-20:00,O'Reilly Auto Parts,Q7071951
https://locations.oreillyauto.com/nc/boone/autopartes-6605.html,oreilly,O'Reilly Auto Parts,,Boone,NC,,US,+1 828-278-3004,https://locations.oreillyauto.com/nc/boone/autopartes-6605.html,Mo-Sa 07:30-21:00; Su 09:00-20:00,O'Reilly Auto Parts,Q7071951
https://locations.papajohns.com/#10693153,papa_johns,Papa John's,,Boone,NC,,US,+1 828-262-7272,https://locations.papajohns.com/united-states/nc/28607/boone/521-nc-highway-105-ext,Mo-Th 10:30-23:00; Fr-Sa 10:30-24:00; Su 11:00-23:00,Papa John's Pizza,Q2759586
751739,penske,Wallace Propane &amp; Appliance,,BOONE,NC,,US,+1 828-297-1064,https://www.pensketruckrental.com/locations/us/north_carolina/boone/751739/,,Penske,Q81234570
nc_boone_821-blowing-rock-rd,pizza_hut_us,821 Blowing Rock Rd,,Boone,NC,,US,+1 828-832-7300,https://locations.pizzahut.com/nc/boone/821-blowing-rock-rd,,Pizza Hut,Q191615
boone-paint-and-interiors-33317,ppgpaints,BOONE PAINT & INTERIORS,,"Boone, ",NC,,US,+1 828-264-9220,https://www.ppgpaints.com/store-locator/us/north-carolina/boone-paint-stores/boone-paint-and-interiors-33317,,PPG Paints,Q83891559
1275-blowing-rock-road,staples,"Staples Boone, NC",,Boone,NC,,US,,https://stores.staples.com/nc/boone/1275-blowing-rock-road,Mo-Fr 09:00-20:00; Sa 09:00-18:00; Su 11:00-18:00,Staples,Q785943
https://restaurants.subway.com/#14902834,subway,Subway Gateway Center,,Boone Watauga,NC,,US,+1 828-268-9300,https://restaurants.subway.com/united-states/nc/boone/1542-b-hwy-421-south,Mo-We 08:30-21:30; Th 08:30-18:30; Fr-Su 08:30-21:30,Subway,Q244457
https://restaurants.subway.com/#14897710,subway,Subway Exxon C-Store,,Boone Watauga,NC,,US,+1 828-265-3788,https://restaurants.subway.com/united-states/nc/boone/1023-blowing-rock-rd,Mo-Su 08:30-21:30,Subway,Q244457
https://restaurants.subway.com/#14915630,subway,Subway Wal-Mart #2496,,Boone Watauga,NC,,US,+1 828-265-0900,https://restaurants.subway.com/united-states/nc/boone/200-watauga-village-drive,Mo-Su 08:30-21:30,Subway,Q244457
35378,sweetfrog_us,sweetFrog Store 35378,,Boone,NC,,US,+1 828-386-1113,https://www.sweetfrog.com/stores/frozen-yogurt-boone/35378,Mo-Su 12:30-21:00,sweetFrog,Q16952110
https://locations.tacobell.com/#3916672,taco_bell,Taco Bell,,Boone,NC,,US,+1 828-264-4766,https://locations.tacobell.com/nc/boone/1093-blowing-rock-rd.html,Mo-Th 08:00-02:00; Fr 08:00-24:00; Sa 10:00-02:00; Su 08:00-02:00,Taco Bell,Q752941
28196,tjx,Boone,1180 Blowing Rock Road,Boone,NC,,US,+1 828-262-0540,,Mo-Sa 09:30-21:30; Su 10:00-20:00,HomeGoods,Q5887941
081125,tjx,Boone,1180 Blowing Rock Road ,Boone,NC,,US,+1 828-264-0261,,Mo-Sa 09:30-21:30; Su 10:00-20:00,TJ Maxx,Q10860683
1361142,usps,DOWNTOWN BOONE,,BOONE,NC,,US,+1 828-262-1171,,"Mo-Fr 09:00-11:00,12:00-16:00",United States Postal Service,Q668687
1355425,usps,BOONE,,BOONE,NC,,US,+1 828-264-3813,,,United States Postal Service,Q668687
2860700023,usps_collection_boxes,USPS COLLECTION BOX - BLUE BOX,157 INDUSTRIAL PARK DR,BOONE,NC,,US,,,,United States Postal Service,Q668687
2860700022,usps_collection_boxes,USPS COLLECTION BOX - BLUE BOX,235 NEW MARKET CTR,BOONE,NC,,US,,,,United States Postal Service,Q668687
2860700018,usps_collection_boxes,USPS COLLECTION BOX - BLUE BOX,743 W KING ST,BOONE,NC,,US,,,,United States Postal Service,Q668687
2860700017,usps_collection_boxes,USPS COLLECTION BOX - BLUE BOX,680 W KING ST,BOONE,NC,,US,,,,United States Postal Service,Q668687
2860700029,usps_collection_boxes,USPS COLLECTION BOX - PO LOBBY,680 W KING ST,BOONE,NC,,US,,,,United States Postal Service,Q668687
2860700033,usps_collection_boxes,USPS COLLECTION BOX - PO LOBBY,680 W KING ST,BOONE,NC,,US,,,,United States Postal Service,Q668687
2860700019,usps_collection_boxes,USPS COLLECTION BOX - BLUE BOX,607 W KING ST,BOONE,NC,,US,,,,United States Postal Service,Q668687
2860700021,usps_collection_boxes,USPS COLLECTION BOX - BLUE BOX,132 POPLAR GROVE CONNECTOR,BOONE,NC,,US,,,,United States Postal Service,Q668687
2860700024,usps_collection_boxes,USPS COLLECTION BOX - BLUE BOX,400 SHADOWLINE DR,BOONE,NC,,US,,,,United States Postal Service,Q668687
2860700010,usps_collection_boxes,USPS COLLECTION BOX - BLUE BOX,958 BLOWING ROCK RD,BOONE,NC,,US,,,,United States Postal Service,Q668687
2860700015,usps_collection_boxes,USPS COLLECTION BOX - BLUE BOX,240 SHADOWLINE DR,BOONE,NC,,US,,,,United States Postal Service,Q668687
2860700001,usps_collection_boxes,USPS COLLECTION BOX - BLUE BOX,1544 BLOWING ROCK RD,BOONE,NC,,US,,,,United States Postal Service,Q668687
2860700026,usps_collection_boxes,USPS COLLECTION BOX - PO LOBBY,1544 BLOWING ROCK RD,BOONE,NC,,US,,,,United States Postal Service,Q668687
2860700032,usps_collection_boxes,USPS COLLECTION BOX - PO LOBBY,1544 BLOWING ROCK RD,BOONE,NC,,US,,,,United States Postal Service,Q668687
2860700009,usps_collection_boxes,USPS COLLECTION BOX - BLUE BOX,1180 BLOWING ROCK RD,BOONE,NC,,US,,,,United States Postal Service,Q668687
2860700007,usps_collection_boxes,USPS COLLECTION BOX - BLUE BOX,336 DEERFIELD RD,BOONE,NC,,US,,,,United States Postal Service,Q668687
2860700006,usps_collection_boxes,USPS COLLECTION BOX - BLUE BOX,314 MEADOWVIEW DR,BOONE,NC,,US,,,,United States Postal Service,Q668687
2860700005,usps_collection_boxes,USPS COLLECTION BOX - BLUE BOX,643 GREENWAY RD,BOONE,NC,,US,,,,United States Postal Service,Q668687
2860700003,usps_collection_boxes,USPS COLLECTION BOX - BLUE BOX,276 WATAUGA VILLAGE DR,BOONE,NC,,US,,,,United States Postal Service,Q668687
2860700014,usps_collection_boxes,USPS COLLECTION BOX - BLUE BOX,2575 HIGHWAY 105,BOONE,NC,,US,,,,United States Postal Service,Q668687
R00000251694,verizon_us,Boone,,Boone,NC,,US,+1 828-719-3188,https://www.verizon.com/stores/details/north-carolina/boone/boone-1126018/,Mo-Sa 09:00-18:00; Su 10:00-17:00,Verizon,Q919641
A00000251808,verizon_us,Russell Cellular Boone Hwy 421,,Boone,NC,,US,+1 828-266-9697,https://www.verizon.com/stores/details/north-carolina/boone/russell-cellular-boone-hwy-421-1527622/,Mo-Sa 10:00-18:00; Su 11:00-17:00,Verizon,Q919641
A00000251807,verizon_us,Russell Cellular Boone Wilson Dr,,BOONE,NC,,US,+1 828-262-5198,https://www.verizon.com/stores/details/north-carolina/boone/russell-cellular-boone-wilson-dr-1527722/,Mo-Sa 09:00-19:00; Su 11:00-17:00,Verizon,Q919641
,visa,,,BOONE,NC,,US,,,,,
,visa,,,BOONE,NC,,US,,,,,
,visa,,,ROCKWELL,NC,,US,,,,,
,visa,,,GASTONIA,NC,,US,,,,,
,visa,,,BOONE,NC,,US,,,,,
,visa,,,BOONE,NC,,US,,,,,
,visa,,,BOONE,NC,,US,,,,,
,visa,,,BOONE,NC,,US,,,,,
,visa,,,BOONE,NC,,US,,,,,
,visa,,,BOONE,NC,,US,,,,,
,visa,,,BOONE,NC,,US,,,,,
,visa,,,BOONE,NC,,US,,,,,
,visa,,,BOONE,NC,,US,,,,,
,visa,,,BOONE,NC,,US,,,,,
,visa,,,BOONE,NC,,US,,,,,
,visa,,,BOONE,NC,,US,,,,,
,visa,,,BOONE,NC,,US,,,,,
,visa,,,BOONE,NC,,US,,,,,
,visa,,,BOONE,NC,,US,,,,,
,visa,,,BOONE,NC,,US,,,,,
,visa,,,BOONE,NC,,US,,,,,
,visa,,,BOONE,NC,,US,,,,,
,visa,,,BOONE,NC,,US,,,,,
,visa,,,BOONE,NC,,US,,,,,
,visa,,,BOONE,NC,,US,,,,,
,visa,,,BOONE,NC,,US,,,,,
,visa,,,BOONE,NC,,US,,,,,
,visa,,,BOONE,NC,,US,,,,,
,visa,,,BOONE,NC,,US,,,,,
,visa,,,BOONE,NC,,US,,,,,
,visa,,,BOONE,NC,,US,,,,,
,visa,,,BOONE,NC,,US,,,,,
,visa,,,BOONE,NC,,US,,,,,
,visa,,,BOONE,NC,,US,,,,,
,visa,,,BOONE,NC,,US,,,,,
,visa,,,BOONE,NC,,US,,,,,
,visa,,,BOONE,NC,,US,,,,,
,visa,,,BOONE,NC,,US,,,,,
,visa,,,BOONE,NC,,US,,,,,
,visa,,,BOONE,NC,,US,,,,,
,visa,,,BOONE,NC,,US,,,,,
,visa,,,BOONE,NC,,US,,,,,
,visa,,,BOONE,NC,,US,,,,,
,visa,,,BOONE,NC,,US,,,,,
,visa,,,BOONE,NC,,US,,,,,
,visa,,,BOONE,NC,,US,,,,,
,visa,,,BOONE,NC,,US,,,,,
,visa,,,BOONE,NC,,US,,,,,
,visa,,,BOONE,NC,,US,,,,,
,visa,,,BOONE,NC,,US,,,,,
,visa,,,BOONE,NC,,US,,,,,
,visa,,,BOONE,NC,,US,,,,,
,visa,,,BOONE,NC,,US,,,,,
,visa,,,BOONE,NC,,US,,,,,
,visa,,,BOONE,NC,,US,,,,,
,visa,,,BOONE,NC,,US,,,,,
,visa,,,BOONE,NC,,US,,,,,
,visa,,,BOONE,NC,,US,,,,,
,visa,,,BOONE,NC,,US,,,,,
,visa,,,VILAS,NC,,US,,,,,
,visa,,,BOONE,NC,,US,,,,,
2031,waffle_house_us,Waffle House #2031,,BOONE,NC,,US,+1 828-264-6575,https://locations.wafflehouse.com/boone-nc-2031,24/7,Waffle House,Q1701206
https://www.walgreens.com/locator/walgreens-2184+blowing+rock+rd-boone-nc-28607/id=2540,walgreens,Walgreens,,Boone,NC,,US,+1 828-268-0727,https://www.walgreens.com/locator/walgreens-2184+blowing+rock+rd-boone-nc-28607/id=2540,Mo-Su 07:00-23:00,Walgreens,Q1591889
958__BLOWING__ROCK__RD_BOONE_NC_28607,wellsfargo,Wells Fargo,958 BLOWING ROCK RD,BOONE,NC,,US,+1 828-262-4681,https://www.wellsfargo.com/locator/bank/958__BLOWING__ROCK__RD_BOONE_NC_28607/,Mo-Fr 09:00-17:00,Wells Fargo,Q744149
276__WATAUGA__VILLAGE__DR_BOONE_NC_28607,wellsfargo,,276 WATAUGA VILLAGE DR,BOONE,NC,,US,+1 800-869-3557,https://www.wellsfargo.com/locator/bank/276__WATAUGA__VILLAGE__DR_BOONE_NC_28607/,,Wells Fargo,Q744149
https://locations.wendys.com/#9250988,wendys,"Wendy's 01 Boone in Boone, NC",,Boone,NC,,US,+1 828-264-7550,https://locations.wendys.com/united-states/nc/boone/1016-blowing-rock-road,"Mo-Th 06:30-10:30,09:00-22:00; Fr-Sa 06:30-10:30,09:00-23:00; Su 06:30-10:30,09:00-22:00",Wendy's,Q550258
a109596f5de03d6167c8ad2b681f60f2,western_union,WALMART #002496,,Boone,NC,,US,+1 828-262-0254,https://location.westernunion.com/us/nc/boone/a109596f5de03d6167c8ad2b681f60f2,Mo-Su 07:00-21:00,Western Union,Q861042
0fbebfa89108940a2139ae8884cc0edf,western_union,SCOTCHMAN #3092,,Boone,NC,,US,+1 828-262-1825,https://location.westernunion.com/us/nc/boone/0fbebfa89108940a2139ae8884cc0edf,Mo-Su 06:00-22:00,Western Union,Q861042
