Ref,Spider,Name,Address,City,State,Zipcode,Country,Phone,Website,Hours,Brand,WikiData
3345,action,Rinteln,,Rinteln,,,DE,,https://www.action.com/de-de/laden/rinteln-im-emerten/,,Action,Q2634111
https://vertretung.allianz.de/thomas.buente/,allianz_de,Allianz Versicherung Thomas Bünte GENERALVERTRETUNG,,Rinteln,,,DE,+49 5751 2009,https://vertretung.allianz.de/thomas.buente/,"Mo-Tu 09:30-13:00,14:30-17:00; We 09:30-13:00; Th 09:30-13:00,14:30-17:00; Fr 09:30-14:00",Allianz SE,Q487292
https://vertretung.allianz.de/alexander.schmidt02/,allianz_de,Allianz Versicherung Alexander Schmidt GENERALVERTRETUNG,,Rinteln,,,DE,+49 5751 971442,https://vertretung.allianz.de/alexander.schmidt02/,"Mo-Th 09:00-13:00,15:00-17:00; Fr 09:00-13:00",Allianz SE,Q487292
16001700,bp,team energie GmbH&Co. KG,,Rinteln,,,DE,+49 5751 5275,http://tankstelle.aral.de/tankstelle/16001700,Mo-Fr 05:30-22:00; Sa 06:00-22:00; Su 07:00-22:00,BP,Q152057
Rinteln,combi_de,Combi,"Große Tonkuhle 11, 31737 Rinteln",Rinteln,,,DE,+49 5751 9215938,https://www.combi.de/marktauswahl/Rinteln,Mo-Sa 07:00-21:00,Combi,Q1113618
Rinteln-Krankenhagen,combi_de,Combi,"Extertalstraße 10a, 31737 Rinteln",Rinteln,,,DE,+49 5751 925460,https://www.combi.de/marktauswahl/Rinteln-Krankenhagen,Mo-Sa 07:00-21:00,Combi,Q1113618
569,deutsche_telekom_de,Telekom Shop Rinteln,,Rinteln,,,DE,+49 5751 9210489,https://shopseite.telekom.de/nord-ost/rinteln/klosterstr-1,Mo-Fr 09:30-18:00; Sa 09:30-14:00,Deutsche Telekom,Q9396
de:1634,dm,dm-drogerie markt,,Rinteln,,,DE,+49 5751 9210578,https://www.dm.de/store/d2k2/rinteln/grosse-tonkuhle-9,Mo-Sa 08:00-20:00,dm,Q266572
52.19565939.1033483,dpd_de,Kuhlmann Hausgeräte oHG,,Rinteln,,,DE,,,,DPD,Q541030
52.1936969.112626,dpd_de,Lohse Büro- und Medientechnik OHG,,Rinteln,,,DE,,,,DPD,Q541030
52.186169.07942,dpd_de,NKD Deutschland GmbH,,Rinteln,,,DE,,,,DPD,Q541030
100151222,exxonmobil,Esso Station Rinteln Seetorstrasse,,RINTELN,,,DE,+49 5751 954290,https://www.esso.de/de-de/find-station/esso-rinteln-essostationrintelnseetorstrasse-100151222,Mo-Fr 06:30-21:00; Sa 07:30-21:00; Su 08:30-21:00,Esso,Q867662
100150757,exxonmobil,Esso Station Rinteln K-Adenauer-Str,,RINTELN,,,DE,+49 5751 5270,https://www.esso.de/de-de/find-station/esso-rinteln-essostationrintelnkadenauerstr-100150757,Mo-Sa 07:00-22:00; Su 08:00-22:00,Esso,Q867662
https://www.fressnapf.de/stores/fressnapf-rinteln/,fressnapf_de,Fressnapf Rinteln,,Rinteln,,,DE,+49 5751 9244380,https://www.fressnapf.de/stores/fressnapf-rinteln/,Mo-Fr 09:00-19:00; Sa 09:00-18:00,Fressnapf,Q875796
2760918684,gls_de,SL Fashion,,Rinteln,,,DE,+49 5751 6079067,,Mo-Fr 10:00-18:30; Sa 10:00-16:00,General Logistics Systems,Q46495823
2760916844,gls_de,Kiosk am Marktplatz,,Rinteln,,,DE,+49 176 24347555,,Mo-Su 10:00-22:00,General Logistics Systems,Q46495823
2760905924,gls_de,freenet Shop Rinteln,,Rinteln,,,DE,+49 5751 9227572,,Mo-Fr 09:30-18:30; Sa 09:30-16:00,General Logistics Systems,Q46495823
2760915280,gls_de,MN Land- und Forsttechnik,,Rinteln,,,DE,+49 1577 3571960,,Mo-Tu 09:00-18:00; We-Th 09:00-17:00; Fr 09:00-14:00; Sa 09:00-13:00,General Logistics Systems,Q46495823
1630,jysk,Rinteln,,Rinteln,,,DE,+49 5751 9685110,https://jysk.de/filialen?storeId=1630,Mo-Th 10:00-18:30; Sa 09:30-17:00,JYSK,Q138913
2350,kik,KiK,,Rinteln,,,DE,+49 5751 921963,,Mo-Fr 09:00-19:00; Sa 09:00-18:00,KiK,Q883965
6468,kik,KiK,,Rinteln,,,DE,+49 5751 9239108,,Mo-Fr 09:00-19:00; Sa 09:00-18:00,KiK,Q883965
7134,lidl_de,,,Rinteln,,,DE,,,Mo-Sa 07:00-21:00,Lidl,Q151954
74112445,moneygram,SUHANA'S LEBENSMITTELMARKT - RINTELN,,RINTELN,,,DE,+49 5751 9636030,,Mo-Sa 09:30-18:30; Su 00:00-24:00,MoneyGram,Q1944412
74462357,moneygram,M STYLE - RINTELN,,RINTELN,,,DE,+49 5751 1597956,,Mo-Sa 10:00-19:00; Su 00:00-24:00,MoneyGram,Q1944412
https://www.rossmann.de/de/filialen/niedersachsen/rinteln/weserstr--6.html,rossmann_de,Rossmann Drogerie-Markt Weserstr. 6,,Rinteln,,,DE,+49 5751 965027,https://www.rossmann.de/de/filialen/niedersachsen/rinteln/weserstr--6.html,Mo-Fr 08:30-18:30; Sa 08:30-17:00,Rossmann,Q316004
47007,seat_de,Autohaus Buddensiek GmbH,,Rinteln,,,DE,+49 5751 76680,https://buddensiek.seat.de,,SEAT,Q188217
20322,sparkasse_de,Sparkasse Schaumburg Geldautomat Krankenhagen,,Rinteln,,,DE,+49 5751 402222,https://www.sparkasse.de/standorte/geldautomaten/sparkasse-schaumburg-geldautomat-krankenhagen-20322,Mo-Su 06:00-24:00,Sparkasse,Q13601825
37232,sparkasse_de,Sparkasse Schaumburg Geldautomat Steinbergen,,Rinteln,,,DE,+49 5751 402222,https://www.sparkasse.de/standorte/geldautomaten/sparkasse-schaumburg-geldautomat-steinbergen-37232,Mo-Su 06:00-24:00,Sparkasse,Q13601825
3610,sparkasse_de,Sparkasse Schaumburg Geschäftsstelle Steinbergen,,Rinteln,,,DE,+49 5751 402222,https://www.sparkasse.de/standorte/filialen/sparkasse-schaumburg-geschaeftsstelle-steinbergen-3610,Mo 14:30-16:30; Tu 09:30-12:30; Th 14:00-18:00; Fr 09:30-12:30,Sparkasse,Q13601825
20320,sparkasse_de,Sparkasse Schaumburg Geldautomat Rinteln,,Rinteln,,,DE,+49 5751 402222,https://www.sparkasse.de/standorte/geldautomaten/sparkasse-schaumburg-geldautomat-rinteln-20320,Mo-Su 06:00-24:00,Sparkasse,Q13601825
100570,sparkasse_de,Sparkasse Schaumburg Geschäftsstelle Rinteln,,Rinteln,,,DE,+49 5751 402222,https://www.sparkasse.de/standorte/filialen/sparkasse-schaumburg-geschaeftsstelle-rinteln-100570,"Mo 09:30-12:30,13:30-16:30; Tu 09:30-12:30,13:00-18:00; We 09:30-12:30; Th 09:30-12:30,13:00-18:00; Fr 09:30-12:30,13:30-16:30",Sparkasse,Q13601825
37231,sparkasse_de,Sparkasse Schaumburg Geldautomat Andeplatz,,Rinteln,,,DE,+49 5751 402222,https://www.sparkasse.de/standorte/geldautomaten/sparkasse-schaumburg-geldautomat-andeplatz-37231,Mo-Su 06:00-24:00,Sparkasse,Q13601825
3613,sparkasse_de,Sparkasse Schaumburg Geschäftsstelle Andeplatz,,Rinteln,,,DE,+49 5751 402222,https://www.sparkasse.de/standorte/filialen/sparkasse-schaumburg-geschaeftsstelle-andeplatz-3613,"Mo 09:30-12:30,14:30-16:30; Tu 09:30-12:30,14:00-18:00; We 09:30-12:30; Th 09:30-12:30,14:00-18:00; Fr 09:30-12:30,14:30-16:30",Sparkasse,Q13601825
20316,sparkasse_de,Sparkasse Schaumburg Geldautomat Detmolder Straße (Rinteln),,Rinteln,,,DE,+49 5751 402222,https://www.sparkasse.de/standorte/geldautomaten/sparkasse-schaumburg-geldautomat-detmolder-strasse-rinteln-20316,Mo-Su 06:00-24:00,Sparkasse,Q13601825
37233,sparkasse_de,Sparkasse Schaumburg Geldautomat Deckbergen,,Rinteln,,,DE,+49 5751 402222,https://www.sparkasse.de/standorte/geldautomaten/sparkasse-schaumburg-geldautomat-deckbergen-37233,Mo-Su 06:00-24:00,Sparkasse,Q13601825
37229,sparkasse_de,Sparkasse Schaumburg Geldautomat Exten,,Rinteln,,,DE,+49 5751 402222,https://www.sparkasse.de/standorte/geldautomaten/sparkasse-schaumburg-geldautomat-exten-37229,Mo-Su 06:00-24:00,Sparkasse,Q13601825
35098,sparkasse_de,Sparkasse Schaumburg Geschäftsstelle Exten,,Rinteln,,,DE,+49 5751 402222,https://www.sparkasse.de/standorte/filialen/sparkasse-schaumburg-geschaeftsstelle-exten-35098,Mo 09:30-12:30; Tu 14:00-18:00; Th 09:30-12:30; Fr 14:30-16:30,Sparkasse,Q13601825
https://toom.de/m/rinteln/,toom_baumarkt_de,toom Baumarkt in Rinteln,,Rinteln,,,DE,+49 5751 97130,https://toom.de/m/rinteln/,Mo-Sa 07:00-20:00,Toom Baumarkt,Q2442970
DE_EXT_02157,totalenergies,"ARAL TANKSTELLE RINTELN, AUF D",,Rinteln,,,DE,,https://store.totalenergies.fr/en_EN/DE_EXT_02157,,Aral,Q565734
https://www.vlh.de/bst/3173/Oeffnungszeiten.html,vhl_de,VLH-Beraterin Silvia Wendland in Rinteln,,Rinteln,,,DE,+49 5751 9714019,https://www.vlh.de/bst/3173/,,Vereinigte Lohnsteuerhilfe e.V.,Q15852617
,visa,,,RINTELN,,,DE,,,,,
,visa,,,RINTELN,,,DE,,,,,
,visa,,,RINTELN,,,DE,,,,,
,visa,,,RINTELN,,,DE,,,,,
,visa,,,RINTELN,,,DE,,,,,
,visa,,,RINTELN,,,DE,,,,,
https://shops.vodafone.de/rinteln/markt-4,vodafone_de,Vodafone-Shop,,Rinteln,,,DE,+49 5751 7052353,https://shops.vodafone.de/rinteln/markt-4,Mo-Fr 10:00-18:00,Vodafone,Q122141
https://www.vr.de/standorte/R/volksbank-in-schaumburg-und-nienburg-eg-geschaeftsstelle-rinteln-7387.html,vr_bank,Volksbank in Schaumburg und Nienburg eG Geschäftsstelle Rinteln Nordstadt,,Rinteln,,,DE,+49 5751 4050,https://www.vb-isun.de,"Mo-Tu 08:30-13:00,14:00-16:30; We 08:30-13:00; Th 08:30-13:00,14:00-18:00; Fr 08:30-13:00,14:00-16:30",,
https://www.vr.de/standorte/R/volksbank-in-schaumburg-und-nienburg-eg-sb-standort-raiffeisen-19580.html,vr_bank,Volksbank in Schaumburg und Nienburg eG - SB-Standort Raiffeisen Rinteln,,Rinteln,,,DE,+49 5751 4050,https://www.vb-isun.de,Mo-Sa 09:00-18:30,,
https://www.vr.de/standorte/R/volksbank-in-schaumburg-und-nienburg-eg-sb-standort-marktkauf-19577.html,vr_bank,Volksbank in Schaumburg und Nienburg eG - SB-Standort Marktkauf Rinteln,,Rinteln,,,DE,+49 5751 4050,https://www.vb-isun.de,Mo-Sa 08:00-21:00,,
https://www.vr.de/standorte/R/volksbank-in-schaumburg-und-nienburg-eg-geschaeftsstelle-rinteln-7386.html,vr_bank,Volksbank in Schaumburg und Nienburg eG Geschäftsstelle Rinteln,,Rinteln,,,DE,+49 5751 4050,https://www.vb-isun.de,"Mo-Tu 08:30-13:00,14:00-16:30; We 08:30-13:00; Th 08:30-13:00,14:00-18:00; Fr 08:30-13:00,14:00-16:30",,
https://www.vr.de/standorte/R/volksbank-in-schaumburg-und-nienburg-eg-geschaeftsstelle-kranken-7390.html,vr_bank,Volksbank in Schaumburg und Nienburg eG Geschäftsstelle Krankenhagen,,Rinteln,,,DE,+49 5751 4050,https://www.vb-isun.de,"Mo-Tu 08:30-13:00,14:00-16:30; We 08:30-13:00; Th 08:30-13:00,14:00-18:00; Fr 08:30-13:00,14:00-16:30",,
